timestamp,DesRoll,Roll,DesPitch,Pitch,DesYaw,Yaw,ErrRP,ErrYaw,abAccX,abAccY,abAccZ,abGyrX,abGyrY,abGyrZ,labels,operational_status,total_kinetic_shock_g
15363852.0,0.0,0.02,0.0,0.0,3.51,3.51,0.0,0.0,-0.00046311,-0.0013428,-9.817147,0.00013579,0.000135,0.0002321,0,0_NORMAL_FLIGHT,9.8171
15413832.0,0.0,0.02,0.0,0.0,3.525,3.525,0.0,0.0,-0.00052282,-0.00019193,-9.816688,0.00016472,0.00014985,0.00022841,0,0_NORMAL_FLIGHT,9.8167
15463812.0,0.0,0.02,0.0,0.0,3.54,3.54,0.0,0.0,-0.00162987,-0.00044639,-9.81665,0.00016693,0.0002111,0.00027411,0,0_NORMAL_FLIGHT,9.8167
15513792.0,0.0,0.02,0.0,0.0,3.55,3.55,0.0,0.0,-0.00218636,-0.00223662,-9.816851,0.00020419,0.00024179,0.00025452,0,0_NORMAL_FLIGHT,9.8169
15563772.0,0.0,0.02,0.0,0.0,3.56,3.56,0.0,0.0,-0.00188437,-0.00167402,-9.81715,0.000195,0.00026858,0.00018583,0,0_NORMAL_FLIGHT,9.8172
15613752.0,0.0,0.02,0.0,0.0,3.57,3.57,0.0,0.0,-0.00107017,-0.00068162,-9.817696,0.00017714,0.00020531,0.0002099,0,0_NORMAL_FLIGHT,9.8177
15663732.0,0.0,0.02,0.0,0.0,3.58,3.58,0.0,0.0,0.00066201,-0.00046092,-9.817172,0.00019581,0.00015505,0.00020709,0,0_NORMAL_FLIGHT,9.8172
15713712.0,0.0,0.02,0.0,0.0,3.59,3.59,0.0,0.0,-0.00130172,-0.00148541,-9.816887,0.00021482,0.00020432,0.00021568,0,0_NORMAL_FLIGHT,9.8169
15763692.0,0.0,0.02,0.0,0.0,3.6,3.6,0.0,0.0,-0.00076575,-0.00161148,-9.818167,0.00016637,0.0001481,0.00021527,0,0_NORMAL_FLIGHT,9.8182
15813672.0,0.0,0.02,0.0,0.0,3.605,3.605,0.0,0.0,0.00038121,-0.00140102,-9.817821,0.00019892,0.0002468,0.00012552,0,0_NORMAL_FLIGHT,9.8178
15863652.0,0.0,0.02,0.0,0.0,3.61,3.61,0.0,0.0,-0.00071986,-0.00060752,-9.817113,0.00020761,0.00022757,0.00025435,0,0_NORMAL_FLIGHT,9.8171
15913632.0,0.0,0.02,0.0,0.0,3.62,3.62,0.0,0.0,-0.00062233,-0.00047767,-9.81682,0.00026931,0.00017117,0.00016265,0,0_NORMAL_FLIGHT,9.8168
15963612.0,0.0,0.02,0.0,0.0,3.63,3.63,0.0,0.0,-0.00176604,-0.00080809,-9.818518,0.00018718,0.00025857,0.00018919,0,0_NORMAL_FLIGHT,9.8185
16013592.0,0.0,0.02,0.0,0.0,3.635,3.635,0.0,0.0,-0.00132545,-0.00091914,-9.818045,0.00028346,0.0001699,0.00022475,0,0_NORMAL_FLIGHT,9.818
16063572.0,0.0,0.02,0.0,0.0,3.64,3.64,0.0,0.0,-0.00204341,-0.00123892,-9.817552,0.00022257,0.00021477,0.00019972,0,0_NORMAL_FLIGHT,9.8176
16113552.0,0.0,0.02,0.0,0.0,3.645,3.645,0.0,0.0,-0.0008524,-0.00094593,-9.818672,0.00023188,0.0002251,0.00019837,0,0_NORMAL_FLIGHT,9.8187
16163532.0,0.0,0.02,0.0,0.0,3.65,3.65,0.0,0.0,-0.00138934,-0.00093525,-9.817356,0.00013684,0.00019609,0.00021673,0,0_NORMAL_FLIGHT,9.8174
16213512.0,0.0,0.02,0.0,0.005,3.655,3.655,0.0,0.0,2.244e-05,-0.00154289,-9.818151,0.00016694,0.00019318,0.0002493,0,0_NORMAL_FLIGHT,9.8182
16263492.0,0.0,0.02,0.0,0.01,3.66,3.66,0.0,0.0,-0.0019884,-0.00025665,-9.817297,9.664e-05,0.0001082,0.00032578,0,0_NORMAL_FLIGHT,9.8173
16313472.0,0.0,0.02,0.0,0.01,3.665,3.665,0.0,0.0,-0.00078213,-0.00201088,-9.817229,0.00019034,0.0001543,0.00019967,0,0_NORMAL_FLIGHT,9.8172
16363452.0,0.0,0.02,0.0,0.01,3.67,3.67,0.0,0.0,-0.00061553,-0.00076646,-9.817011,0.00017813,0.00016837,0.00025298,0,0_NORMAL_FLIGHT,9.817
16413432.0,0.0,0.02,0.0,0.01,3.675,3.675,0.0,0.0,-0.00185593,-0.00070127,-9.817087,0.00020868,0.0001994,0.00024965,0,0_NORMAL_FLIGHT,9.8171
16463412.0,0.0,0.02,0.0,0.01,3.68,3.68,0.0,0.0,-0.00016413,-0.00098202,-9.817739,0.00022336,0.00014483,0.00020507,0,0_NORMAL_FLIGHT,9.8177
16513392.0,0.0,0.02,0.0,0.01,3.685,3.685,0.0,0.0,-0.00196776,-0.00163556,-9.817288,0.00019044,0.00014594,0.00028115,0,0_NORMAL_FLIGHT,9.8173
16563372.0,0.0,0.02,0.0,0.01,3.69,3.69,0.0,0.0,-0.00198397,-0.00287801,-9.81838,0.00018955,0.00014075,0.00029297,0,0_NORMAL_FLIGHT,9.8184
16613352.0,0.0,0.02,0.0,0.01,3.69,3.69,0.0,0.0,-0.00088273,-0.00084416,-9.817721,0.00021091,0.00019565,0.00021704,0,0_NORMAL_FLIGHT,9.8177
16663332.0,0.0,0.02,0.0,0.01,3.69,3.69,0.0,0.0,-0.00097127,-0.00196943,-9.816832,0.00017653,0.00027011,0.00018978,0,0_NORMAL_FLIGHT,9.8168
16713312.0,0.0,0.02,0.0,0.01,3.695,3.695,0.0,0.0,-0.00194673,-0.00074627,-9.817307,0.00016976,0.00021712,0.00028091,0,0_NORMAL_FLIGHT,9.8173
16763292.0,0.0,0.02,0.0,0.01,3.7,3.7,0.0,0.0,-0.00107274,-0.00090336,-9.817468,0.00017816,0.00021796,0.00023681,0,0_NORMAL_FLIGHT,9.8175
16813688.5,0.0,0.02,0.0,0.01,3.705,3.705,0.0,0.0,-0.00246776,-0.00089964,-9.817623,0.00028189,0.00026334,0.00025562,0,0_NORMAL_FLIGHT,9.8176
16864085.0,0.0,0.02,0.0,0.01,3.71,3.71,0.0,0.0,-0.0012365,-0.00260661,-9.817698,0.00020634,0.00024585,0.00024053,0,0_NORMAL_FLIGHT,9.8177
16914065.0,0.0,0.02,0.0,0.01,3.71,3.71,0.0,0.0,-0.00109573,-0.00058385,-9.816985,0.00025253,0.0002014,0.00023491,0,0_NORMAL_FLIGHT,9.817
16964045.0,0.0,0.02,0.0,0.01,3.71,3.71,0.0,0.0,-0.00041585,-0.00098597,-9.818119,0.0002198,0.0001766,0.00032464,0,0_NORMAL_FLIGHT,9.8181
17014025.0,0.0,0.02,0.0,0.01,3.715,3.715,0.0,0.0,-0.00165084,-0.00094842,-9.818033,0.00022628,0.00019103,0.000233,0,0_NORMAL_FLIGHT,9.818
17064005.0,0.0,0.02,0.0,0.01,3.72,3.72,0.0,0.0,-0.0009018,-0.00156247,-9.817067,0.00027579,0.00013433,0.00023761,0,0_NORMAL_FLIGHT,9.8171
17113985.0,0.0,0.02,0.0,0.01,3.72,3.72,0.0,0.0,-0.0012373,-0.00123364,-9.817915,0.00019957,0.00018837,0.00024024,0,0_NORMAL_FLIGHT,9.8179
17163965.0,0.0,0.02,0.0,0.01,3.72,3.72,0.0,0.0,-0.00088689,-0.00088974,-9.817675,0.000188,0.00015203,0.00017454,0,0_NORMAL_FLIGHT,9.8177
17213945.0,0.0,0.02,0.0,0.01,3.72,3.72,0.0,0.0,-0.00057772,-0.00093806,-9.817782,0.00024534,0.00025973,0.00019751,0,0_NORMAL_FLIGHT,9.8178
17263925.0,0.0,0.02,0.0,0.01,3.72,3.72,0.0,0.0,-0.0017966,-0.00188539,-9.817609,0.00015201,0.0002414,0.0002529,0,0_NORMAL_FLIGHT,9.8176
17313905.0,0.0,0.02,0.0,0.01,3.72,3.72,0.0,0.0,-0.00177148,-0.00152906,-9.81793,0.00025184,0.0002866,0.00023513,0,0_NORMAL_FLIGHT,9.8179
17363885.0,0.0,0.02,0.0,0.01,3.72,3.72,0.0,0.0,-0.001556,-0.00103442,-9.817953,0.0001814,0.00024763,0.00027267,0,0_NORMAL_FLIGHT,9.818
17413865.0,0.0,0.02,0.0,0.01,3.715,3.715,0.0,0.0,-0.00070264,-0.00168872,-9.816875,0.0002478,0.00021016,0.00020591,0,0_NORMAL_FLIGHT,9.8169
17463845.0,0.0,0.02,0.0,0.01,3.71,3.71,0.0,0.0,-0.00242235,-0.00125065,-9.817476,0.00022513,0.00021861,0.00020536,0,0_NORMAL_FLIGHT,9.8175
17513825.0,0.0,0.02,0.0,0.01,3.71,3.71,0.0,0.0,-0.00023947,-0.00115485,-9.817962,0.0002263,0.00019552,0.00024137,0,0_NORMAL_FLIGHT,9.818
17563805.0,0.0,0.02,0.0,0.01,3.71,3.71,0.0,0.0,-0.00214992,-0.00078288,-9.817819,0.00025369,0.00019917,0.00018843,0,0_NORMAL_FLIGHT,9.8178
17613785.0,0.0,0.02,0.0,0.01,3.71,3.71,0.0,0.0,-0.00030803,-0.00042118,-9.818879,0.00030276,0.00019695,0.000252,0,0_NORMAL_FLIGHT,9.8189
17663765.0,0.0,0.02,0.0,0.01,3.71,3.71,0.0,0.0,-0.0017871,4.992e-05,-9.817501,0.00023636,0.00017043,5.324e-05,0,0_NORMAL_FLIGHT,9.8175
17713745.0,0.0,0.02,0.0,0.01,3.705,3.705,0.0,0.0,-0.00196261,-0.00061214,-9.817578,0.0001766,0.00024882,0.00025183,0,0_NORMAL_FLIGHT,9.8176
17763725.0,0.0,0.02,0.0,0.01,3.7,3.7,0.0,0.0,-0.00140716,-0.00053483,-9.817175,0.00026158,0.00020921,0.00026539,0,0_NORMAL_FLIGHT,9.8172
17813705.0,0.0,0.02,0.0,0.01,3.7,3.7,0.0,0.0,-0.00044705,-0.00086087,-9.817781,0.00023783,0.00031464,0.00026297,0,0_NORMAL_FLIGHT,9.8178
17863685.0,0.0,0.02,0.0,0.01,3.7,3.7,0.0,0.0,0.00033856,-0.00096238,-9.817656,0.00026437,0.00023191,0.00033724,0,0_NORMAL_FLIGHT,9.8177
17913665.0,0.0,0.02,0.0,0.01,3.695,3.695,0.0,0.0,-0.00110567,-0.00174917,-9.817256,0.00028502,0.00022445,0.0002411,0,0_NORMAL_FLIGHT,9.8173
17963645.0,0.0,0.02,0.0,0.01,3.69,3.69,0.0,0.0,-0.00139948,-0.00063198,-9.818172,0.00028761,0.00028137,0.00025365,0,0_NORMAL_FLIGHT,9.8182
18013625.0,0.0,0.02,0.0,0.01,3.69,3.69,0.0,0.0,-0.00189336,-0.00117541,-9.817019,0.00021152,0.00017964,0.00023611,0,0_NORMAL_FLIGHT,9.817
18063605.0,0.0,0.02,0.0,0.01,3.69,3.69,0.0,0.0,-0.00148707,-0.0006408,-9.817009,0.00029723,0.00019794,0.00013972,0,0_NORMAL_FLIGHT,9.817
18113585.0,0.0,0.02,0.0,0.01,3.685,3.685,0.0,0.0,-0.00011534,-0.00236781,-9.817297,0.00026047,0.0003124,0.00026275,0,0_NORMAL_FLIGHT,9.8173
18163565.0,0.0,0.02,0.0,0.01,3.68,3.68,0.0,0.0,-0.00040062,-0.0004031,-9.817719,0.00023631,0.00028067,0.00027672,0,0_NORMAL_FLIGHT,9.8177
18213545.0,0.0,0.02,0.0,0.01,3.68,3.68,0.0,0.0,-0.00118949,-0.00016287,-9.816547,0.0001984,0.00019775,0.00025887,0,0_NORMAL_FLIGHT,9.8165
18263525.0,0.0,0.02,0.0,0.01,3.68,3.68,0.0,0.0,-0.00116038,-0.00131062,-9.817455,0.00024121,0.00020422,0.0003149,0,0_NORMAL_FLIGHT,9.8175
18313505.0,0.0,0.02,0.0,0.01,3.675,3.675,0.0,0.0,-0.00034771,-0.00063361,-9.817186,0.00032131,0.0002582,0.00029969,0,0_NORMAL_FLIGHT,9.8172
18363485.0,0.0,0.02,0.0,0.01,3.67,3.67,0.0,0.0,-0.00113383,-0.00077726,-9.816128,0.00028049,0.00018376,0.00021976,0,0_NORMAL_FLIGHT,9.8161
18413465.0,0.0,0.02,0.0,0.01,3.665,3.665,0.0,0.0,-0.00121189,-0.00171986,-9.817736,0.00024045,0.00018723,0.00024494,0,0_NORMAL_FLIGHT,9.8177
18463445.0,0.0,0.02,0.0,0.01,3.66,3.66,0.0,0.0,-0.00100766,-0.00162792,-9.817418,0.00019721,0.0002376,0.00032814,0,0_NORMAL_FLIGHT,9.8174
18513425.0,0.0,0.02,0.0,0.01,3.655,3.655,0.0,0.0,-0.00067284,-0.00051388,-9.817444,0.0002201,0.0002045,0.00026841,0,0_NORMAL_FLIGHT,9.8174
18563405.0,0.0,0.02,0.0,0.01,3.65,3.65,0.0,0.0,-0.00118641,-0.00103628,-9.818089,0.00023851,0.00025092,0.00023956,0,0_NORMAL_FLIGHT,9.8181
18613385.0,0.0,0.02,0.0,0.01,3.65,3.65,0.0,0.0,-0.00070929,-0.00078761,-9.816311,0.00030347,0.00023816,0.00032364,0,0_NORMAL_FLIGHT,9.8163
18663365.0,0.0,0.02,0.0,0.01,3.65,3.65,0.0,0.0,0.00011815,-0.00166192,-9.818711,0.00025637,0.00018429,0.00019793,0,0_NORMAL_FLIGHT,9.8187
18713345.0,0.0,0.02,0.0,0.01,3.645,3.645,0.0,0.0,-0.00045152,-0.00032607,-9.817787,0.00028104,0.00014473,0.00030022,0,0_NORMAL_FLIGHT,9.8178
18763325.0,0.0,0.02,0.0,0.01,3.64,3.64,0.0,0.0,-0.00025319,-0.00153506,-9.816398,0.00031542,0.00019539,0.00020381,0,0_NORMAL_FLIGHT,9.8164
18813305.0,0.0,0.02,0.0,0.01,3.635,3.635,0.0,0.0,-0.00117429,-0.00186881,-9.817354,0.00019139,0.00024764,0.00030707,0,0_NORMAL_FLIGHT,9.8174
18863285.0,0.0,0.02,0.0,0.01,3.63,3.63,0.0,0.0,0.00011537,-0.00131298,-9.817488,0.00020802,0.00028219,0.00023071,0,0_NORMAL_FLIGHT,9.8175
18913681.5,0.0,0.02,0.0,0.01,3.625,3.625,0.0,0.0,0.00031486,-0.00115588,-9.818199,0.00027764,0.00025413,0.00027369,0,0_NORMAL_FLIGHT,9.8182
18964078.0,0.0,0.02,0.0,0.01,3.62,3.62,0.0,0.0,-0.00114354,-0.00056526,-9.817784,0.00032454,0.0002229,0.00032778,0,0_NORMAL_FLIGHT,9.8178
19014058.0,0.0,0.025,0.0,0.01,3.615,3.615,0.0,0.0,-0.00149921,-0.00193461,-9.818232,0.00026581,0.00024312,0.00028492,0,0_NORMAL_FLIGHT,9.8182
19064038.0,0.0,0.03,0.0,0.01,3.61,3.61,0.0,0.0,-0.00170043,-0.00142475,-9.818058,0.00023555,0.00033962,0.00028804,0,0_NORMAL_FLIGHT,9.8181
19114018.0,0.0,0.03,0.0,0.01,3.605,3.605,0.0,0.0,-0.00150315,-0.00165842,-9.817682,0.00026641,0.0002389,0.00020739,0,0_NORMAL_FLIGHT,9.8177
19163998.0,0.0,0.03,0.0,0.01,3.6,3.6,0.0,0.0,-0.00013173,-0.00095521,-9.816848,0.00023118,0.00025055,0.00027357,0,0_NORMAL_FLIGHT,9.8168
19213978.0,0.0,0.03,0.0,0.01,3.6,3.6,0.0,0.0,-0.00162087,-0.00089633,-9.817003,0.00020973,0.00021571,0.00030028,0,0_NORMAL_FLIGHT,9.817
19263958.0,0.0,0.03,0.0,0.01,3.6,3.6,0.0,0.0,-2.799e-05,-7.085e-05,-9.817308,0.00028261,0.00028889,0.00023014,0,0_NORMAL_FLIGHT,9.8173
19313938.0,0.0,0.03,0.0,0.01,3.59,3.59,0.0,0.0,-0.00163956,-0.00035879,-9.816425,0.00020478,0.00024286,0.00026962,0,0_NORMAL_FLIGHT,9.8164
19363918.0,0.0,0.03,0.0,0.01,3.58,3.58,0.0,0.0,0.0004009,-0.00044124,-9.816967,0.00027817,0.00030185,0.00030076,0,0_NORMAL_FLIGHT,9.817
19413898.0,0.0,0.03,0.0,0.01,3.575,3.575,0.0,0.0,-0.00068428,-0.00058971,-9.816932,0.00035336,0.00027825,0.00026476,0,0_NORMAL_FLIGHT,9.8169
19463878.0,0.0,0.03,0.0,0.01,3.57,3.57,0.0,0.0,-0.00099499,-0.00044624,-9.817995,0.000197,0.00025499,0.00025894,0,0_NORMAL_FLIGHT,9.818
19513858.0,0.0,0.03,0.0,0.01,3.565,3.565,0.0,0.0,-0.00038098,-0.0018369,-9.816908,0.00026945,0.00030407,0.00035147,0,0_NORMAL_FLIGHT,9.8169
19563838.0,0.0,0.03,0.0,0.01,3.56,3.56,0.0,0.0,-0.00124762,-0.00167572,-9.81627,0.00026612,0.00023576,0.0002743,0,0_NORMAL_FLIGHT,9.8163
19613818.0,0.0,0.03,0.0,0.01,3.555,3.555,0.0,0.0,-0.000898,-0.00145651,-9.817577,0.00020433,0.00026542,0.00020555,0,0_NORMAL_FLIGHT,9.8176
19663798.0,0.0,0.03,0.0,0.01,3.55,3.55,0.0,0.0,-0.00064092,-0.0008178,-9.817444,0.00020035,0.00022424,0.00027099,0,0_NORMAL_FLIGHT,9.8174
19713778.0,0.0,0.03,0.0,0.01,3.545,3.545,0.0,0.0,-0.00094764,-0.000982,-9.818002,0.00022991,0.00030285,0.0002671,0,0_NORMAL_FLIGHT,9.818
19763758.0,0.0,0.03,0.0,0.01,3.54,3.54,0.0,0.0,-0.00121971,-0.00082048,-9.817892,0.00029172,0.00024021,0.00029682,0,0_NORMAL_FLIGHT,9.8179
19813738.0,0.0,0.03,0.0,0.01,3.535,3.535,0.0,0.0,-0.00024891,-0.00086539,-9.817043,0.00019436,0.00026971,0.00026459,0,0_NORMAL_FLIGHT,9.817
19863718.0,0.0,0.03,0.0,0.01,3.53,3.53,0.0,0.0,-0.00130479,-0.00087375,-9.81723,0.00023481,0.00024609,0.00035774,0,0_NORMAL_FLIGHT,9.8172
19913698.0,0.0,0.03,0.0,0.01,3.525,3.525,0.0,0.0,-0.00134734,-9.492e-05,-9.817812,0.00026625,0.00026685,0.00034366,0,0_NORMAL_FLIGHT,9.8178
19963678.0,0.0,0.03,0.0,0.01,3.52,3.52,0.0,0.0,-0.00136014,-0.00016305,-9.817183,0.00024849,0.00031314,0.00024952,0,0_NORMAL_FLIGHT,9.8172
20013658.0,0.0,0.03,0.0,0.01,3.515,3.515,0.0,0.0,-0.00031659,-0.00066767,-9.817097,0.00019466,0.0002974,0.00029112,0,0_NORMAL_FLIGHT,9.8171
20063638.0,0.0,0.03,0.0,0.01,3.51,3.51,0.0,0.0,-0.00036465,0.00053834,-9.817447,0.00031503,0.0002495,0.0002839,0,0_NORMAL_FLIGHT,9.8174
20113618.0,0.0,0.03,0.0,0.01,3.505,3.505,0.0,0.0,-0.00017044,-0.00147659,-9.817778,0.00036915,0.00028448,0.00029005,0,0_NORMAL_FLIGHT,9.8178
20163598.0,0.0,0.03,0.0,0.01,3.5,3.5,0.0,0.0,-0.00035941,-0.00129672,-9.818266,0.0002023,0.0002552,0.00021264,0,0_NORMAL_FLIGHT,9.8183
20213578.0,0.0,0.03,0.0,0.01,3.495,3.495,0.0,0.0,-0.0013945,0.0002078,-9.817575,0.00021778,0.00024111,0.00033899,0,0_NORMAL_FLIGHT,9.8176
20263558.0,0.0,0.03,0.0,0.01,3.49,3.49,0.0,0.0,0.0004196,-0.00155735,-9.818403,0.00025147,0.00023597,0.00033418,0,0_NORMAL_FLIGHT,9.8184
20313538.0,0.0,0.03,0.0,0.01,3.485,3.485,0.0,0.0,-0.0020091,-0.00015076,-9.81708,0.00036453,0.00023652,0.00026646,0,0_NORMAL_FLIGHT,9.8171
20363518.0,0.0,0.03,0.0,0.01,3.48,3.48,0.0,0.0,-0.00130391,-0.0012776,-9.815634,0.00037063,0.00030288,0.00030704,0,0_NORMAL_FLIGHT,9.8156
20413498.0,0.0,0.03,0.0,0.01,3.475,3.475,0.0,0.0,-0.00081273,-0.00145251,-9.817245,0.00024624,0.00031645,0.00028058,0,0_NORMAL_FLIGHT,9.8172
20463478.0,0.0,0.03,0.0,0.01,3.47,3.47,0.0,0.0,-0.00088471,-0.00099114,-9.817692,0.00031722,0.00031875,0.00032396,0,0_NORMAL_FLIGHT,9.8177
20513458.0,0.0,0.03,0.0,0.01,3.46,3.46,0.0,0.0,-0.00157943,-0.00147748,-9.817735,0.00026781,0.00024579,0.00037661,0,0_NORMAL_FLIGHT,9.8177
20563438.0,0.0,0.03,0.0,0.01,3.45,3.45,0.0,0.0,-0.00077034,-0.00045963,-9.816778,0.00021924,0.00025176,0.00026255,0,0_NORMAL_FLIGHT,9.8168
20613418.0,0.0,0.03,0.0,0.01,3.445,3.445,0.0,0.0,-0.0007862,-0.0006046,-9.816759,0.00024024,0.00028485,0.00029939,0,0_NORMAL_FLIGHT,9.8168
20663398.0,0.0,0.03,0.0,0.01,3.44,3.44,0.0,0.0,-0.0017665,-0.00116676,-9.818499,0.0003234,0.00026285,0.00033599,0,0_NORMAL_FLIGHT,9.8185
20713378.0,0.0,0.03,0.0,0.015,3.435,3.435,0.0,0.0,-0.00073072,-0.0010668,-9.81722,0.00034965,0.00030511,0.00022825,0,0_NORMAL_FLIGHT,9.8172
20763358.0,0.0,0.03,0.0,0.02,3.43,3.43,0.0,0.0,-0.00108373,-0.00019523,-9.817473,0.00026076,0.00030043,0.00025767,0,0_NORMAL_FLIGHT,9.8175
20813338.0,0.0,0.03,0.0,0.02,3.425,3.425,0.0,0.0,5.734e-05,-0.00044806,-9.816965,0.00032196,0.00026932,0.00038723,0,0_NORMAL_FLIGHT,9.817
20863318.0,0.0,0.03,0.0,0.02,3.42,3.42,0.0,0.0,-0.00062959,-0.00125614,-9.817449,0.00031889,0.00030726,0.00028721,0,0_NORMAL_FLIGHT,9.8174
20913298.0,0.0,0.03,0.0,0.02,3.415,3.415,0.0,0.0,-0.00111679,-0.00069385,-9.817387,0.00037129,0.00026978,0.00029361,0,0_NORMAL_FLIGHT,9.8174
20963278.0,0.0,0.03,0.0,0.02,3.41,3.41,0.0,0.0,-0.00048234,-0.00156962,-9.818561,0.0003344,0.00029244,0.00028913,0,0_NORMAL_FLIGHT,9.8186
21013674.5,0.0,0.03,0.0,0.02,3.405,3.405,0.0,0.0,-6.151e-05,-0.00067364,-9.81746,0.00025431,0.00032091,0.0003277,0,0_NORMAL_FLIGHT,9.8175
21064071.0,0.0,0.03,0.0,0.02,3.4,3.4,0.0,0.0,-0.00113614,-0.00077169,-9.816863,0.00029409,0.00030396,0.00029786,0,0_NORMAL_FLIGHT,9.8169
21114051.0,0.0,0.03,0.0,0.02,3.39,3.39,0.0,0.0,-0.00169451,-0.0011007,-9.818062,0.00025913,0.0002832,0.00030957,0,0_NORMAL_FLIGHT,9.8181
21164031.0,0.0,0.03,0.0,0.02,3.38,3.38,0.0,0.0,-0.00133815,-7.817e-05,-9.81714,0.00023716,0.00021047,0.00032597,0,0_NORMAL_FLIGHT,9.8171
21214011.0,0.0,0.03,0.0,0.02,3.375,3.375,0.0,0.0,0.00055049,-0.00055095,-9.81883,0.00025758,0.00029794,0.0002512,0,0_NORMAL_FLIGHT,9.8188
21263991.0,0.0,0.03,0.0,0.02,3.37,3.37,0.0,0.0,-0.00206459,-0.00023522,-9.816768,0.00024001,0.00026294,0.00031276,0,0_NORMAL_FLIGHT,9.8168
21313971.0,0.0,0.03,0.0,0.02,3.365,3.365,0.0,0.0,-0.00069135,-0.00134504,-9.817395,0.00028896,0.00023093,0.00025935,0,0_NORMAL_FLIGHT,9.8174
21363951.0,0.0,0.03,0.0,0.02,3.36,3.36,0.0,0.0,-0.00047162,-0.00041856,-9.816694,0.00020172,0.00028496,0.00035094,0,0_NORMAL_FLIGHT,9.8167
21413931.0,0.0,0.03,0.0,0.02,3.355,3.355,0.0,0.0,-0.00115966,-0.00064047,-9.817742,0.00028368,0.00029146,0.00031473,0,0_NORMAL_FLIGHT,9.8177
21463911.0,0.0,0.03,0.0,0.02,3.35,3.35,0.0,0.0,-0.00088358,-0.00112582,-9.818466,0.00028955,0.00027588,0.00032634,0,0_NORMAL_FLIGHT,9.8185
21513891.0,0.0,0.03,0.0,0.02,3.345,3.345,0.0,0.0,-0.00259401,-0.00097619,-9.816522,0.00031595,0.00031531,0.00025962,0,0_NORMAL_FLIGHT,9.8165
21563871.0,0.0,0.03,0.0,0.02,3.34,3.34,0.0,0.0,-0.00082306,-0.00085168,-9.817091,0.00023889,0.00030893,0.00023015,0,0_NORMAL_FLIGHT,9.8171
21613851.0,0.0,0.03,0.0,0.02,3.33,3.33,0.0,0.0,-0.00238194,-0.00093136,-9.81744,0.00029028,0.00022286,0.00036028,0,0_NORMAL_FLIGHT,9.8174
21663831.0,0.0,0.03,0.0,0.02,3.32,3.32,0.0,0.0,-0.0003992,-0.00096684,-9.817951,0.00032184,0.00032478,0.000289,0,0_NORMAL_FLIGHT,9.818
21713811.0,0.0,0.03,0.0,0.02,3.315,3.315,0.0,0.0,-0.00058956,-0.00042727,-9.817762,0.00031965,0.00025778,0.00030503,0,0_NORMAL_FLIGHT,9.8178
21763791.0,0.0,0.03,0.0,0.02,3.31,3.31,0.0,0.0,-0.00076639,0.00019792,-9.817865,0.00028605,0.0003746,0.00033579,0,0_NORMAL_FLIGHT,9.8179
21813771.0,0.0,0.03,0.0,0.02,3.305,3.305,0.0,0.0,-8.26e-06,0.00072733,-9.817367,0.00039871,0.00021336,0.000304,0,0_NORMAL_FLIGHT,9.8174
21863751.0,0.0,0.03,0.0,0.02,3.3,3.3,0.0,0.0,-0.00057581,-0.00073293,-9.816881,0.00027075,0.00034453,0.00030589,0,0_NORMAL_FLIGHT,9.8169
21913731.0,0.0,0.03,0.0,0.02,3.295,3.295,0.0,0.0,-0.00072767,3.932e-05,-9.816328,0.00023834,0.00040095,0.00025467,0,0_NORMAL_FLIGHT,9.8163
21963711.0,0.0,0.03,0.0,0.02,3.29,3.29,0.0,0.0,-0.00124889,-0.00031218,-9.817591,0.000283,0.00030536,0.00032511,0,0_NORMAL_FLIGHT,9.8176
22013691.0,0.0,0.035,0.0,0.02,3.285,3.285,0.0,0.0,-0.00117334,-0.00096986,-9.816553,0.00036522,0.00020783,0.00046445,0,0_NORMAL_FLIGHT,9.8166
22063671.0,0.0,0.04,0.0,0.02,3.28,3.28,0.0,0.0,-0.00052353,-0.00023658,-9.817421,0.00028856,0.00036461,0.00031923,0,0_NORMAL_FLIGHT,9.8174
22113651.0,0.0,0.04,0.0,0.02,3.27,3.27,0.0,0.0,-0.00151389,-0.00121411,-9.816606,0.00032226,0.00027185,0.0003131,0,0_NORMAL_FLIGHT,9.8166
22163631.0,0.0,0.04,0.0,0.02,3.26,3.26,0.0,0.0,-0.00073038,-0.00096322,-9.81773,0.000272,0.00035392,0.00039536,0,0_NORMAL_FLIGHT,9.8177
22213611.0,0.0,0.04,0.0,0.02,3.255,3.255,0.0,0.0,-0.00084884,-0.00096641,-9.816963,0.0003085,0.00031177,0.00031101,0,0_NORMAL_FLIGHT,9.817
22263591.0,0.0,0.04,0.0,0.02,3.25,3.25,0.0,0.0,-0.00133513,-0.00158379,-9.818005,0.00042335,0.00032674,0.0002966,0,0_NORMAL_FLIGHT,9.818
22313571.0,0.0,0.04,0.0,0.02,3.245,3.245,0.0,0.0,7.633e-05,-0.00184021,-9.817377,0.000327,0.00031697,0.00040415,0,0_NORMAL_FLIGHT,9.8174
22363551.0,0.0,0.04,0.0,0.02,3.24,3.24,0.0,0.0,-0.00151249,-0.00028086,-9.819011,0.00038875,0.00030316,0.0002478,0,0_NORMAL_FLIGHT,9.819
22413531.0,0.0,0.04,0.0,0.02,3.235,3.235,0.0,0.0,-0.00062956,-0.00177334,-9.81735,0.00027156,0.00036494,0.00035339,0,0_NORMAL_FLIGHT,9.8174
22463511.0,0.0,0.04,0.0,0.02,3.23,3.23,0.0,0.0,-6.209e-05,-0.0015972,-9.816872,0.00037678,0.00031937,0.00039951,0,0_NORMAL_FLIGHT,9.8169
22513491.0,0.0,0.04,0.0,0.02,3.22,3.22,0.0,0.0,-0.00047814,-0.00178503,-9.81765,0.00029653,0.00038075,0.00034816,0,0_NORMAL_FLIGHT,9.8177
22563471.0,0.0,0.04,0.0,0.02,3.21,3.21,0.0,0.0,-0.00127246,-0.00166475,-9.818172,0.00030031,0.00029405,0.00033189,0,0_NORMAL_FLIGHT,9.8182
22613451.0,0.0,0.04,0.0,0.02,3.205,3.205,0.0,0.0,-0.00099522,-0.00023858,-9.818142,0.00031416,0.00019236,0.00034054,0,0_NORMAL_FLIGHT,9.8181
22663431.0,0.0,0.04,0.0,0.02,3.2,3.2,0.0,0.0,-0.00107858,-0.00131911,-9.817709,0.00038096,0.00023796,0.00033589,0,0_NORMAL_FLIGHT,9.8177
22713411.0,0.0,0.04,0.0,0.02,3.195,3.195,0.0,0.0,-0.00067521,-0.00049307,-9.817867,0.00031506,0.00026518,0.00031659,0,0_NORMAL_FLIGHT,9.8179
22763391.0,0.0,0.04,0.0,0.02,3.19,3.19,0.0,0.0,-0.0022097,-0.00139954,-9.818092,0.00040448,0.00033282,0.00030422,0,0_NORMAL_FLIGHT,9.8181
22813371.0,0.0,0.04,0.0,0.02,3.185,3.185,0.0,0.0,-0.00046016,-0.00057316,-9.816536,0.00026616,0.00031966,0.00036118,0,0_NORMAL_FLIGHT,9.8165
22863351.0,0.0,0.04,0.0,0.02,3.18,3.18,0.0,0.0,-0.00155913,-0.00154611,-9.816607,0.00032569,0.00036053,0.00032183,0,0_NORMAL_FLIGHT,9.8166
22913331.0,0.0,0.04,0.0,0.02,3.17,3.17,0.0,0.0,-1.068e-05,-0.00132527,-9.817235,0.00031818,0.00030984,0.00036164,0,0_NORMAL_FLIGHT,9.8172
22963311.0,0.0,0.04,0.0,0.02,3.16,3.16,0.0,0.0,-0.00142658,-0.00103563,-9.818044,0.00039266,0.00035625,0.00043679,0,0_NORMAL_FLIGHT,9.818
23013291.0,0.0,0.04,0.0,0.02,3.155,3.155,0.0,0.0,-0.001443,-0.00043029,-9.817786,0.00026916,0.00037602,0.00037595,0,0_NORMAL_FLIGHT,9.8178
23063271.0,0.0,0.04,0.0,0.02,3.15,3.15,0.0,0.0,-0.00089449,-0.00132153,-9.817784,0.00035316,0.00024818,0.00034249,0,0_NORMAL_FLIGHT,9.8178
23113667.5,0.0,0.04,0.0,0.02,3.145,3.145,0.0,0.0,-0.00085256,-0.00145576,-9.816326,0.00040249,0.00027316,0.00037808,0,0_NORMAL_FLIGHT,9.8163
23164064.0,0.0,0.04,0.0,0.02,3.14,3.14,0.0,0.0,-0.00038628,-0.00088899,-9.817134,0.00032963,0.00030599,0.00036442,0,0_NORMAL_FLIGHT,9.8171
23214044.0,0.0,0.04,0.0,0.02,3.135,3.135,0.0,0.0,-0.00110599,-0.00030494,-9.817748,0.00030471,0.00034163,0.0003599,0,0_NORMAL_FLIGHT,9.8177
23264024.0,0.0,0.04,0.0,0.02,3.13,3.13,0.0,0.0,-0.00185244,-0.00173154,-9.817826,0.00037785,0.00035961,0.00038713,0,0_NORMAL_FLIGHT,9.8178
23314004.0,0.0,0.04,0.0,0.02,3.125,3.125,0.0,0.0,-0.00083653,-0.00119822,-9.818091,0.00028025,0.00041805,0.00030995,0,0_NORMAL_FLIGHT,9.8181
23363984.0,0.0,0.04,0.0,0.02,3.12,3.12,0.0,0.0,-0.00077389,-0.00066285,-9.817535,0.00034277,0.00021954,0.00030347,0,0_NORMAL_FLIGHT,9.8175
23413964.0,0.0,0.04,0.0,0.02,3.115,3.115,0.0,0.0,-0.00026632,-0.00077159,-9.817003,0.00039674,0.00036497,0.00031742,0,0_NORMAL_FLIGHT,9.817
23463944.0,0.0,0.04,0.0,0.02,3.11,3.11,0.0,0.0,-0.00188036,-0.00062363,-9.81795,0.00038475,0.00027841,0.00032439,0,0_NORMAL_FLIGHT,9.818
23513924.0,0.0,0.04,0.0,0.02,3.1,3.1,0.0,0.0,-0.00073868,-0.00072115,-9.816268,0.00039945,0.00033283,0.00038762,0,0_NORMAL_FLIGHT,9.8163
23563904.0,0.0,0.04,0.0,0.02,3.09,3.09,0.0,0.0,-0.0008147,-0.00193587,-9.817953,0.00031916,0.00028087,0.00033124,0,0_NORMAL_FLIGHT,9.818
23613884.0,0.0,0.04,0.0,0.02,3.085,3.085,0.0,0.0,-0.00044506,-0.001412,-9.818159,0.00035758,0.00037568,0.00028165,0,0_NORMAL_FLIGHT,9.8182
23663864.0,0.0,0.04,0.0,0.02,3.08,3.08,0.0,0.0,-0.00170328,0.00010629,-9.817799,0.00034068,0.00032911,0.00034208,0,0_NORMAL_FLIGHT,9.8178
23713844.0,0.0,0.04,0.0,0.02,3.075,3.075,0.0,0.0,-0.00162554,-0.00021609,-9.817996,0.00043308,0.00027231,0.00039687,0,0_NORMAL_FLIGHT,9.818
23763824.0,0.0,0.04,0.0,0.02,3.07,3.07,0.0,0.0,-0.00017715,-0.00119113,-9.817892,0.00042212,0.00032181,0.00039155,0,0_NORMAL_FLIGHT,9.8179
23813804.0,0.0,0.04,0.0,0.02,3.065,3.065,0.0,0.0,-0.00050996,-0.00049863,-9.816978,0.00027519,0.00029299,0.0003749,0,0_NORMAL_FLIGHT,9.817
23863784.0,0.0,0.04,0.0,0.02,3.06,3.06,0.0,0.0,-0.00072989,-0.0007672,-9.817425,0.00032721,0.00038312,0.00029561,0,0_NORMAL_FLIGHT,9.8174
23913764.0,0.0,0.04,0.0,0.02,3.055,3.055,0.0,0.0,-0.00174697,-0.00086351,-9.818603,0.00036043,0.00038639,0.00032071,0,0_NORMAL_FLIGHT,9.8186
23963744.0,0.0,0.04,0.0,0.02,3.05,3.05,0.0,0.0,-0.00058003,-0.00088369,-9.816212,0.00026109,0.00035965,0.00033089,0,0_NORMAL_FLIGHT,9.8162
24013724.0,0.0,0.04,0.0,0.02,3.04,3.04,0.0,0.0,-0.00081332,0.00011233,-9.817863,0.00028526,0.00028285,0.00033212,0,0_NORMAL_FLIGHT,9.8179
24063704.0,0.0,0.04,0.0,0.02,3.03,3.03,0.0,0.0,-0.00203402,-0.00137291,-9.817468,0.00030838,0.000322,0.00027471,0,0_NORMAL_FLIGHT,9.8175
24113684.0,0.0,0.04,0.0,0.02,3.025,3.025,0.0,0.0,-0.00037289,-0.00089641,-9.817082,0.00037187,0.00033313,0.0003212,0,0_NORMAL_FLIGHT,9.8171
24163664.0,0.0,0.04,0.0,0.02,3.02,3.02,0.0,0.0,-0.00181685,-0.00122895,-9.818863,0.00025944,0.00033597,0.00044566,0,0_NORMAL_FLIGHT,9.8189
24213644.0,0.0,0.04,0.0,0.02,3.015,3.015,0.0,0.0,-0.00138522,-0.00083722,-9.816398,0.00033442,0.00029907,0.00038265,0,0_NORMAL_FLIGHT,9.8164
24263624.0,0.0,0.04,0.0,0.02,3.01,3.01,0.0,0.0,-0.00041866,9.33e-06,-9.817546,0.00038943,0.00036923,0.00040407,0,0_NORMAL_FLIGHT,9.8175
24313604.0,0.0,0.04,0.0,0.025,3.005,3.005,0.0,0.0,-0.00185158,-0.00029528,-9.817902,0.00036349,0.0003542,0.00039778,0,0_NORMAL_FLIGHT,9.8179
24363584.0,0.0,0.04,0.0,0.03,3.0,3.0,0.0,0.0,-0.00012435,-0.00092232,-9.817287,0.00033799,0.0002348,0.00038029,0,0_NORMAL_FLIGHT,9.8173
24413564.0,0.0,0.04,0.0,0.03,2.995,2.995,0.0,0.0,-0.00045634,-0.00135826,-9.817665,0.00035147,0.00037327,0.00039883,0,0_NORMAL_FLIGHT,9.8177
24463544.0,0.0,0.04,0.0,0.03,2.99,2.99,0.0,0.0,-0.00137325,0.00018777,-9.81709,0.00037988,0.00035574,0.0003641,0,0_NORMAL_FLIGHT,9.8171
24513524.0,0.0,0.04,0.0,0.03,2.985,2.985,0.0,0.0,-0.00127407,-3.067e-05,-9.817192,0.00033556,0.00040481,0.00038799,0,0_NORMAL_FLIGHT,9.8172
24563504.0,0.0,0.04,0.0,0.03,2.98,2.98,0.0,0.0,-0.00028952,-0.00022697,-9.81772,0.00038543,0.00038247,0.00032939,0,0_NORMAL_FLIGHT,9.8177
24613484.0,0.0,0.04,0.0,0.03,2.97,2.97,0.0,0.0,-0.00048186,-0.00137667,-9.817428,0.00037306,0.00030803,0.00034992,0,0_NORMAL_FLIGHT,9.8174
24663464.0,0.0,0.04,0.0,0.03,2.96,2.96,0.0,0.0,-0.00012596,-0.0011084,-9.818115,0.00025848,0.00032201,0.0003623,0,0_NORMAL_FLIGHT,9.8181
24713444.0,0.0,0.04,0.0,0.03,2.955,2.955,0.0,0.0,-0.00139637,-0.00017071,-9.817076,0.00042385,0.00036861,0.00041758,0,0_NORMAL_FLIGHT,9.8171
24763424.0,0.0,0.04,0.0,0.03,2.95,2.95,0.0,0.0,-0.00087943,-6.263e-05,-9.818422,0.00038291,0.00040898,0.00038255,0,0_NORMAL_FLIGHT,9.8184
24813404.0,0.0,0.04,0.0,0.03,2.945,2.945,0.0,0.0,-0.00050393,-0.00076909,-9.817699,0.00032157,0.0003888,0.00041686,0,0_NORMAL_FLIGHT,9.8177
24863384.0,0.0,0.04,0.0,0.03,2.94,2.94,0.0,0.0,0.00013264,-0.00096006,-9.816517,0.00041057,0.00031915,0.0003988,0,0_NORMAL_FLIGHT,9.8165
24913364.0,0.0,0.04,0.0,0.03,2.935,2.935,0.0,0.0,-0.00047961,-0.00148328,-9.817137,0.00036229,0.00041525,0.00038078,0,0_NORMAL_FLIGHT,9.8171
24963344.0,0.0,0.04,0.0,0.03,2.93,2.93,0.0,0.0,-0.00024416,-0.00249227,-9.817698,0.00036872,0.00032751,0.00035171,0,0_NORMAL_FLIGHT,9.8177
25013324.0,0.0,0.04,0.0,0.03,2.925,2.925,0.0,0.0,-0.00191522,-0.00073379,-9.818054,0.00033376,0.00035529,0.00032315,0,0_NORMAL_FLIGHT,9.8181
25063304.0,0.0,0.04,0.0,0.03,2.92,2.92,0.0,0.0,-0.00058497,-0.00157372,-9.817867,0.00041501,0.00031608,0.00037082,0,0_NORMAL_FLIGHT,9.8179
25113284.0,0.0,0.04,0.0,0.03,2.915,2.915,0.0,0.0,-0.0005112,-0.00045597,-9.817536,0.00037791,0.00029943,0.00038999,0,0_NORMAL_FLIGHT,9.8175
25163264.0,0.0,0.04,0.0,0.03,2.91,2.91,0.0,0.0,-0.00059922,-0.001188,-9.817553,0.00028482,0.00036244,0.00045491,0,0_NORMAL_FLIGHT,9.8176
25213660.5,0.0,0.04,0.0,0.03,2.905,2.905,0.0,0.0,-0.00118311,-0.00166934,-9.817638,0.00043338,0.00038713,0.00034319,0,0_NORMAL_FLIGHT,9.8176
25264057.0,0.0,0.04,0.0,0.03,2.9,2.9,0.0,0.0,-0.00084653,-0.00185714,-9.817469,0.00033212,0.00030905,0.00039322,0,0_NORMAL_FLIGHT,9.8175
25314037.0,0.0,0.04,0.0,0.03,2.89,2.89,0.0,0.0,-0.00078665,-0.00057633,-9.817555,0.00037636,0.00040744,0.0003492,0,0_NORMAL_FLIGHT,9.8176
25364017.0,0.0,0.04,0.0,0.03,2.88,2.88,0.0,0.0,-0.00218117,-0.00028076,-9.816908,0.00031644,0.00035221,0.00042671,0,0_NORMAL_FLIGHT,9.8169
25413997.0,0.0,0.04,0.0,0.03,2.875,2.875,0.0,0.0,-0.00141112,-0.00114221,-9.817272,0.00034409,0.00034401,0.00042412,0,0_NORMAL_FLIGHT,9.8173
25463977.0,0.0,0.04,0.0,0.03,2.87,2.87,0.0,0.0,-0.00181517,-0.00150047,-9.817055,0.00033571,0.00026564,0.00035612,0,0_NORMAL_FLIGHT,9.8171
25513957.0,0.0,0.04,0.0,0.03,2.865,2.865,0.0,0.0,-5.693e-05,-0.00034922,-9.81673,0.00037164,0.00036541,0.00043763,0,0_NORMAL_FLIGHT,9.8167
25563937.0,0.0,0.04,0.0,0.03,2.86,2.86,0.0,0.0,-0.00128436,-0.00061444,-9.817774,0.00038379,0.00032741,0.00032562,0,0_NORMAL_FLIGHT,9.8178
25613917.0,0.0,0.04,0.0,0.03,2.855,2.855,0.0,0.0,-0.0013203,-0.00142614,-9.816462,0.00042114,0.00023878,0.00039049,0,0_NORMAL_FLIGHT,9.8165
25663897.0,0.0,0.04,0.0,0.03,2.85,2.85,0.0,0.0,-0.00099105,-0.00062372,-9.817673,0.00039955,0.00034089,0.00036582,0,0_NORMAL_FLIGHT,9.8177
25713877.0,0.0,0.04,0.0,0.03,2.845,2.845,0.0,0.0,-0.00097365,-0.00105518,-9.817317,0.00044222,0.00043103,0.00039612,0,0_NORMAL_FLIGHT,9.8173
25763857.0,0.0,0.04,0.0,0.03,2.84,2.84,0.0,0.0,-0.00097637,-0.00179338,-9.817255,0.00039765,0.00036133,0.00038353,0,0_NORMAL_FLIGHT,9.8173
25813837.0,0.0,0.04,0.0,0.03,2.835,2.835,0.0,0.0,0.00030071,-0.00084847,-9.817163,0.00031934,0.00030445,0.00040517,0,0_NORMAL_FLIGHT,9.8172
25863817.0,0.0,0.04,0.0,0.03,2.83,2.83,0.0,0.0,-0.00054117,-0.00059952,-9.81772,0.00042466,0.00033413,0.00043761,0,0_NORMAL_FLIGHT,9.8177
25913797.0,0.0,0.045,0.0,0.03,2.825,2.825,0.0,0.0,-0.0008975,-0.00068333,-9.816845,0.00037449,0.00031896,0.00045396,0,0_NORMAL_FLIGHT,9.8168
25963777.0,0.0,0.05,0.0,0.03,2.82,2.82,0.0,0.0,-0.00112864,-0.00174695,-9.817732,0.00032803,0.00038458,0.00048206,0,0_NORMAL_FLIGHT,9.8177
26013757.0,0.0,0.05,0.0,0.03,2.815,2.815,0.0,0.0,-0.00055269,-0.00143879,-9.817248,0.00038066,0.00041773,0.0004605,0,0_NORMAL_FLIGHT,9.8172
26063737.0,0.0,0.05,0.0,0.03,2.81,2.81,0.0,0.0,-0.00104736,-0.0006922,-9.816995,0.00036725,0.00035353,0.00031193,0,0_NORMAL_FLIGHT,9.817
26113717.0,0.0,0.05,0.0,0.03,2.805,2.805,0.0,0.0,-0.00100034,-0.00090442,-9.818356,0.00047305,0.00033393,0.00036618,0,0_NORMAL_FLIGHT,9.8184
26163697.0,0.0,0.05,0.0,0.03,2.8,2.8,0.0,0.0,-0.00036371,-0.00148933,-9.816397,0.00038731,0.00041976,0.00041957,0,0_NORMAL_FLIGHT,9.8164
26213677.0,0.0,0.05,0.0,0.03,2.795,2.795,0.0,0.0,-0.0015092,-0.00113815,-9.817414,0.0003696,0.00036491,0.00032667,0,0_NORMAL_FLIGHT,9.8174
26263657.0,0.0,0.05,0.0,0.03,2.79,2.79,0.0,0.0,-0.0001993,-0.00083912,-9.817652,0.00029596,0.00031185,0.00049887,0,0_NORMAL_FLIGHT,9.8177
26313637.0,0.0,0.05,0.0,0.03,2.785,2.785,0.0,0.0,-0.00080076,-0.00190297,-9.817526,0.00037088,0.00038328,0.00039627,0,0_NORMAL_FLIGHT,9.8175
26363617.0,0.0,0.05,0.0,0.03,2.78,2.78,0.0,0.0,-0.00014475,-0.00093668,-9.81744,0.00042859,0.00038224,0.00044899,0,0_NORMAL_FLIGHT,9.8174
26413597.0,0.0,0.05,0.0,0.03,2.77,2.77,0.0,0.0,-0.00145844,-0.00084605,-9.818169,0.00040471,0.00047247,0.00050883,0,0_NORMAL_FLIGHT,9.8182
26463577.0,0.0,0.05,0.0,0.03,2.76,2.76,0.0,0.0,-0.00048517,-0.00023586,-9.817113,0.0003806,0.0003744,0.0003034,0,0_NORMAL_FLIGHT,9.8171
26513557.0,0.0,0.05,0.0,0.03,2.755,2.755,0.0,0.0,-0.00057125,-0.00129119,-9.817263,0.00038837,0.00036096,0.00040261,0,0_NORMAL_FLIGHT,9.8173
26563537.0,0.0,0.05,0.0,0.03,2.75,2.75,0.0,0.0,-0.00190501,-0.00044774,-9.817751,0.00044647,0.0004011,0.00040044,0,0_NORMAL_FLIGHT,9.8178
26613517.0,0.0,0.05,0.0,0.03,2.745,2.745,0.0,0.0,-0.00194524,-0.00069033,-9.817195,0.00035055,0.00035689,0.00041672,0,0_NORMAL_FLIGHT,9.8172
26663497.0,0.0,0.05,0.0,0.03,2.74,2.74,0.0,0.0,-0.00089163,-0.00104789,-9.818064,0.00035122,0.00036923,0.00032584,0,0_NORMAL_FLIGHT,9.8181
26713477.0,0.0,0.05,0.0,0.03,2.735,2.735,0.0,0.0,-0.00125197,-0.00086904,-9.817632,0.00044428,0.00036567,0.00038479,0,0_NORMAL_FLIGHT,9.8176
26763457.0,0.0,0.05,0.0,0.03,2.73,2.73,0.0,0.0,-4.89e-05,-0.00088467,-9.817627,0.00034501,0.00036523,0.00037693,0,0_NORMAL_FLIGHT,9.8176
26813437.0,0.0,0.05,0.0,0.03,2.725,2.725,0.0,0.0,-0.00101093,-0.00018468,-9.817755,0.0003539,0.0004109,0.00032907,0,0_NORMAL_FLIGHT,9.8178
26863417.0,0.0,0.05,0.0,0.03,2.72,2.72,0.0,0.0,-0.00073701,-0.00085931,-9.816992,0.0003966,0.00033141,0.00046529,0,0_NORMAL_FLIGHT,9.817
26913397.0,0.0,0.05,0.0,0.03,2.715,2.715,0.0,0.0,-0.00188184,-0.00108102,-9.816842,0.00023452,0.00038287,0.00046281,0,0_NORMAL_FLIGHT,9.8168
26963377.0,0.0,0.05,0.0,0.03,2.71,2.71,0.0,0.0,-0.00013666,-0.00067359,-9.817418,0.00045515,0.0003646,0.00035012,0,0_NORMAL_FLIGHT,9.8174
27013357.0,0.0,0.05,0.0,0.03,2.705,2.705,0.0,0.0,-0.00067226,-0.00082051,-9.817133,0.00034188,0.00032426,0.00045124,0,0_NORMAL_FLIGHT,9.8171
27063337.0,0.0,0.05,0.0,0.03,2.7,2.7,0.0,0.0,-0.00036622,-0.00100834,-9.816839,0.00053418,0.00032916,0.00029805,0,0_NORMAL_FLIGHT,9.8168
27113317.0,0.0,0.05,0.0,0.03,2.695,2.695,0.0,0.0,-0.00054923,-0.00045899,-9.817658,0.00042671,0.00046852,0.00039509,0,0_NORMAL_FLIGHT,9.8177
27163297.0,0.0,0.05,0.0,0.03,2.69,2.69,0.0,0.0,-0.00143538,-0.00051976,-9.817802,0.00036103,0.00039355,0.00045605,0,0_NORMAL_FLIGHT,9.8178
27213693.5,0.0,0.05,0.0,0.03,2.685,2.685,0.0,0.0,-0.00112315,-0.00061866,-9.817358,0.0004626,0.00031835,0.00042272,0,0_NORMAL_FLIGHT,9.8174
27264090.0,0.0,0.05,0.0,0.03,2.68,2.68,0.0,0.0,0.00014067,-0.00081954,-9.81817,0.00035093,0.0004062,0.00034856,0,0_NORMAL_FLIGHT,9.8182
27314070.0,0.0,0.05,0.0,0.03,2.675,2.675,0.0,0.0,-0.00155661,-0.00067055,-9.816701,0.0004142,0.00036088,0.00041611,0,0_NORMAL_FLIGHT,9.8167
27364050.0,0.0,0.05,0.0,0.03,2.67,2.67,0.0,0.0,-0.00083414,-0.0006634,-9.817304,0.0003717,0.00042043,0.00041404,0,0_NORMAL_FLIGHT,9.8173
27414030.0,0.0,0.05,0.0,0.03,2.665,2.665,0.0,0.0,-0.0016525,-0.00118768,-9.818126,0.00038395,0.00040586,0.00045436,0,0_NORMAL_FLIGHT,9.8181
27464010.0,0.0,0.05,0.0,0.03,2.66,2.66,0.0,0.0,-0.00145083,-0.00131753,-9.817853,0.00068149,0.00065237,0.00066779,0,0_NORMAL_FLIGHT,9.8179
27513990.0,0.0,0.05,0.0,0.03,2.655,2.655,0.0,0.0,-0.00116893,-0.00047459,-9.818283,0.00065917,0.00059652,0.00062825,0,0_NORMAL_FLIGHT,9.8183
27563970.0,0.0,0.05,0.0,0.03,2.65,2.65,0.0,0.0,5.816e-05,-0.00077039,-9.817902,0.00072542,0.00064888,0.00061613,0,0_NORMAL_FLIGHT,9.8179
27613950.0,0.0,0.05,0.0,0.03,2.645,2.645,0.0,0.0,-0.00020502,-0.00176393,-9.817836,0.00066019,0.00064177,0.00068684,0,0_NORMAL_FLIGHT,9.8178
27663930.0,0.0,0.05,0.0,0.03,2.64,2.64,0.0,0.0,-0.00089125,-0.00168666,-9.816571,0.00059606,0.00065397,0.00062143,0,0_NORMAL_FLIGHT,9.8166
27713910.0,0.0,0.05,0.0,0.03,2.635,2.635,0.0,0.0,-0.00050578,-0.0004871,-9.816978,0.00071175,0.00059725,0.00069733,0,0_NORMAL_FLIGHT,9.817
27763890.0,0.0,0.05,0.0,0.03,2.63,2.63,0.0,0.0,-0.00135257,-0.00028186,-9.81708,0.00066688,0.00062769,0.00068053,0,0_NORMAL_FLIGHT,9.8171
27813870.0,0.0,0.05,0.0,0.03,2.625,2.625,0.0,0.0,-0.00151836,-0.00154465,-9.817117,0.00059435,0.00066561,0.00066795,0,0_NORMAL_FLIGHT,9.8171
27863850.0,0.0,0.05,0.0,0.03,2.62,2.62,0.0,0.0,-0.0009369,-0.00125958,-9.818707,0.00063728,0.00061693,0.00072471,0,0_NORMAL_FLIGHT,9.8187
27913830.0,0.0,0.05,0.0,0.03,2.615,2.615,0.0,0.0,-0.00156011,-0.00091948,-9.817976,0.00061321,0.00063012,0.00070113,0,0_NORMAL_FLIGHT,9.818
27963810.0,0.0,0.05,0.0,0.03,2.61,2.61,0.0,0.0,-0.00068205,-0.00023143,-9.817458,0.00060079,0.00062471,0.00060568,0,0_NORMAL_FLIGHT,9.8175
28013790.0,0.0,0.05,0.0,0.03,2.605,2.605,0.0,0.0,-0.00184731,-0.00116213,-9.818101,0.00066384,0.00067544,0.00067811,0,0_NORMAL_FLIGHT,9.8181
28063770.0,0.0,0.05,0.0,0.03,2.6,2.6,0.0,0.0,-0.00173092,-0.00063345,-9.816599,0.00068128,0.00062413,0.00062781,0,0_NORMAL_FLIGHT,9.8166
28113750.0,0.0,0.05,0.0,0.03,2.595,2.595,0.0,0.0,-0.00042584,-0.00117804,-9.817418,0.00060749,0.00067709,0.00060649,0,0_NORMAL_FLIGHT,9.8174
28163730.0,0.0,0.05,0.0,0.03,2.59,2.59,0.0,0.0,-0.00152003,-6.8e-06,-9.817728,0.00063731,0.00059721,0.00060421,0,0_NORMAL_FLIGHT,9.8177
28213710.0,0.0,0.05,0.0,0.035,2.585,2.585,0.0,0.0,-0.00098375,-0.00209253,-9.817067,0.00065641,0.00069865,0.00061072,0,0_NORMAL_FLIGHT,9.8171
28263690.0,0.0,0.05,0.0,0.04,2.58,2.58,0.0,0.0,-0.00106729,-0.00214789,-9.817834,0.00068247,0.00059361,0.00069732,0,0_NORMAL_FLIGHT,9.8178
28313670.0,0.0,0.05,0.0,0.04,2.575,2.575,0.0,0.0,-0.00027459,-0.0006622,-9.816476,0.0007333,0.00062721,0.00071147,0,0_NORMAL_FLIGHT,9.8165
28363650.0,0.0,0.05,0.0,0.04,2.57,2.57,0.0,0.0,-0.00145961,-6.228e-05,-9.818704,0.00062853,0.0005962,0.00067288,0,0_NORMAL_FLIGHT,9.8187
28413630.0,0.0,0.05,0.0,0.04,2.57,2.57,0.0,0.0,-0.00167068,-0.0021961,-9.817683,0.00064749,0.00068489,0.00071346,0,0_NORMAL_FLIGHT,9.8177
28463610.0,0.0,0.05,0.0,0.04,2.57,2.57,0.0,0.0,-0.00087773,-0.00145265,-9.817211,0.0007013,0.00061203,0.00076602,0,0_NORMAL_FLIGHT,9.8172
28513590.0,0.0,0.05,0.0,0.04,2.565,2.565,0.0,0.0,-0.00100174,-0.00060523,-9.817738,0.0006765,0.00059956,0.00067993,0,0_NORMAL_FLIGHT,9.8177
28563570.0,0.0,0.05,0.0,0.04,2.56,2.56,0.0,0.0,-0.00102292,-0.00204937,-9.817722,0.00065704,0.00059213,0.00061567,0,0_NORMAL_FLIGHT,9.8177
28613550.0,0.0,0.05,0.0,0.04,2.555,2.555,0.0,0.0,-0.00032632,-0.00042925,-9.817401,0.00064872,0.00062918,0.00066191,0,0_NORMAL_FLIGHT,9.8174
28663530.0,0.0,0.05,0.0,0.04,2.55,2.55,0.0,0.0,-0.00126578,-0.0011618,-9.817199,0.0007191,0.00053812,0.00070009,0,0_NORMAL_FLIGHT,9.8172
28713510.0,0.0,0.05,0.0,0.04,2.545,2.545,0.0,0.0,-0.00053103,-0.00140045,-9.817319,0.00078411,0.00055837,0.00074052,0,0_NORMAL_FLIGHT,9.8173
28763490.0,0.0,0.05,0.0,0.04,2.54,2.54,0.0,0.0,-0.0013437,-0.00043507,-9.81738,0.00072296,0.00069189,0.00069635,0,0_NORMAL_FLIGHT,9.8174
28813470.0,0.0,0.05,0.0,0.04,2.535,2.535,0.0,0.0,-0.00065649,0.00059494,-9.81759,0.00062637,0.00063241,0.00065498,0,0_NORMAL_FLIGHT,9.8176
28863450.0,0.0,0.05,0.0,0.04,2.53,2.53,0.0,0.0,-0.00157584,-0.00158073,-9.817746,0.00062948,0.00061557,0.00064471,0,0_NORMAL_FLIGHT,9.8177
28913430.0,0.0,0.05,0.0,0.04,2.525,2.525,0.0,0.0,-0.00047132,-6.427e-05,-9.81728,0.00064153,0.00065133,0.00061196,0,0_NORMAL_FLIGHT,9.8173
28963410.0,0.0,0.05,0.0,0.04,2.52,2.52,0.0,0.0,0.00027488,-0.00099243,-9.817719,0.00068467,0.00064323,0.00063736,0,0_NORMAL_FLIGHT,9.8177
29013390.0,0.0,0.05,0.0,0.04,2.515,2.515,0.0,0.0,-0.00016688,-0.00108714,-9.816957,0.00069824,0.00059884,0.00070228,0,0_NORMAL_FLIGHT,9.817
29063370.0,0.0,0.05,0.0,0.04,2.51,2.51,0.0,0.0,-0.00147118,-0.00047301,-9.817352,0.00061146,0.00073117,0.00063832,0,0_NORMAL_FLIGHT,9.8174
29113350.0,0.0,0.05,0.0,0.04,2.505,2.505,0.0,0.0,-0.00042111,-0.00045722,-9.817383,0.00068436,0.00070311,0.00062971,0,0_NORMAL_FLIGHT,9.8174
29163330.0,0.0,0.05,0.0,0.04,2.5,2.5,0.0,0.0,-0.00137323,-0.00180088,-9.818556,0.00068555,0.00064449,0.00066468,0,0_NORMAL_FLIGHT,9.8186
29213310.0,0.0,0.05,0.0,0.04,2.495,2.495,0.0,0.0,-0.00075905,0.00012912,-9.818194,0.0006184,0.00059178,0.00073334,0,0_NORMAL_FLIGHT,9.8182
29263290.0,0.0,0.05,0.0,0.04,2.49,2.49,0.0,0.0,-0.00161336,-0.00074979,-9.817075,0.00065427,0.0007079,0.00074725,0,0_NORMAL_FLIGHT,9.8171
29313686.5,0.0,0.05,0.0,0.04,2.485,2.485,0.0,0.0,-0.00126085,-0.00099625,-9.817632,0.00067037,0.00067025,0.00069254,0,0_NORMAL_FLIGHT,9.8176
29364083.0,0.0,0.05,0.0,0.04,2.48,2.48,0.0,0.0,-0.00074398,-0.00129402,-9.817511,0.00065131,0.00062773,0.00078406,0,0_NORMAL_FLIGHT,9.8175
29414063.0,0.0,0.05,0.0,0.04,2.475,2.475,0.0,0.0,8.006e-05,0.00024522,-9.818424,0.000625,0.00070639,0.00068149,0,0_NORMAL_FLIGHT,9.8184
29464043.0,0.0,0.05,0.0,0.04,2.47,2.47,0.0,0.0,-0.00180493,-0.00126527,-9.818963,0.0006901,0.00067073,0.0006277,0,0_NORMAL_FLIGHT,9.819
29514023.0,0.0,0.05,0.0,0.04,2.465,2.465,0.0,0.0,-0.00118348,-8.955e-05,-9.818161,0.00071047,0.0007098,0.00070553,0,0_NORMAL_FLIGHT,9.8182
29564003.0,0.0,0.05,0.0,0.04,2.46,2.46,0.0,0.0,-0.00064576,-0.00095846,-9.817856,0.00068671,0.00068768,0.0007046,0,0_NORMAL_FLIGHT,9.8179
29613983.0,0.0,0.05,0.0,0.04,2.46,2.46,0.0,0.0,-0.00114779,-0.00209786,-9.818064,0.00065863,0.00066589,0.00061938,0,0_NORMAL_FLIGHT,9.8181
29663963.0,0.0,0.05,0.0,0.04,2.46,2.46,0.0,0.0,-0.00126464,-0.0004242,-9.817575,0.00075399,0.00068168,0.00065537,0,0_NORMAL_FLIGHT,9.8176
46013670.5,0.0,0.08,0.0,0.07,1.5,1.5,0.0,0.0,-0.00104639,-0.00220588,-9.817028,0.00061842,0.00068556,0.00068161,0,0_NORMAL_FLIGHT,9.817
46064067.0,0.0,0.08,0.0,0.07,1.5,1.5,0.0,0.0,-0.00036847,-0.00154533,-9.819319,0.00066954,0.00065326,0.00062006,0,0_NORMAL_FLIGHT,9.8193
46114047.0,0.0,0.08,0.0,0.065,1.495,1.495,0.0,0.0,-0.0026038,-0.00140067,-9.817977,0.00067323,0.00065193,0.00070345,0,0_NORMAL_FLIGHT,9.818
46164027.0,0.0,0.08,0.0,0.06,1.49,1.49,0.0,0.0,-0.00068366,-0.00056975,-9.817463,0.00069196,0.00070437,0.00074713,0,0_NORMAL_FLIGHT,9.8175
46214007.0,0.0,0.075,0.0,0.06,1.49,1.49,0.0,0.0,-0.0033264,-0.00213363,-9.816702,0.00073389,0.00062146,0.00071393,0,0_NORMAL_FLIGHT,9.8167
46263987.0,0.0,0.07,0.0,0.06,1.49,1.49,0.0,0.0,0.00337192,-0.00084255,-9.816902,0.00070821,0.00067874,0.00077303,0,0_NORMAL_FLIGHT,9.8169
46313967.0,0.0,0.07,0.0,0.06,1.49,1.49,0.0,0.0,0.00459153,-0.00156072,-9.816339,0.00072475,0.00065259,0.00071772,0,0_NORMAL_FLIGHT,9.8163
46363947.0,0.0,0.07,0.0,0.06,1.49,1.49,0.0,0.0,-0.00283331,-0.00044043,-9.818266,0.0006874,0.0006611,0.00066419,0,0_NORMAL_FLIGHT,9.8183
46413927.0,0.0,0.07,0.0,0.06,1.485,1.485,0.0,0.0,-0.00763477,-0.00435513,-9.817578,0.00064607,0.00063605,0.00067306,0,0_NORMAL_FLIGHT,9.8176
46463907.0,0.0,0.07,0.0,0.06,1.48,1.48,0.0,0.0,-0.00358131,0.00337366,-9.817616,0.00072805,0.00070382,0.00067834,0,0_NORMAL_FLIGHT,9.8176
46513887.0,0.0,0.07,0.0,0.06,1.48,1.48,0.0,0.0,-0.00078527,0.00198205,-9.817697,0.00070423,0.00065111,0.00072711,0,0_NORMAL_FLIGHT,9.8177
46563867.0,0.0,0.07,0.0,0.06,1.48,1.48,0.0,0.0,0.00364466,0.00503117,-9.818529,0.00066376,0.00067088,0.0006908,0,0_NORMAL_FLIGHT,9.8185
46613847.0,0.0,0.07,0.0,0.06,1.48,1.48,0.0,0.0,-0.00090314,-0.01069577,-9.817384,0.0006326,0.00069029,0.00067379,0,0_NORMAL_FLIGHT,9.8174
46663827.0,0.0,0.07,0.0,0.06,1.48,1.48,0.0,0.0,-0.00283872,-0.00727724,-9.817119,0.00065978,0.00065471,0.00072177,0,0_NORMAL_FLIGHT,9.8171
46713807.0,0.0,0.07,0.0,0.06,1.475,1.475,0.0,0.0,-0.01073289,0.00959274,-9.817615,0.00075706,0.00072555,0.00067501,0,0_NORMAL_FLIGHT,9.8176
46763787.0,0.0,0.07,0.0,0.06,1.47,1.47,0.0,0.0,0.00808022,-0.0191019,-9.817093,0.00070498,0.00066492,0.00074045,0,0_NORMAL_FLIGHT,9.8171
46813767.0,0.0,0.07,0.0,0.06,1.47,1.47,0.0,0.0,-0.00242267,-0.00327397,-9.817237,0.00063166,0.00066024,0.00073734,0,0_NORMAL_FLIGHT,9.8172
46863747.0,0.0,0.07,0.0,0.06,1.47,1.47,0.0,0.0,-0.01577276,-0.00734024,-9.8181,0.00071005,0.00070422,0.00071591,0,0_NORMAL_FLIGHT,9.8181
46913727.0,0.0,0.07,0.0,0.06,1.47,1.47,0.0,0.0,-0.04539987,0.05593834,-9.945902,0.0007316,0.00070464,0.00070762,0,0_NORMAL_FLIGHT,9.9462
46963707.0,0.0,0.07,0.0,0.06,1.47,1.47,0.0,0.0,0.0279655,0.04553224,-10.47043,0.00069024,0.00074604,0.00072008,0,0_NORMAL_FLIGHT,10.4706
47013687.0,0.0,0.07,0.0,0.06,1.465,1.465,0.0,0.0,0.01146525,0.00569344,-10.81023,0.00068448,0.00069192,0.00072469,0,0_NORMAL_FLIGHT,10.8102
47063667.0,0.0,0.07,0.0,0.06,1.46,1.46,0.0,0.0,0.00470972,-0.01485059,-10.79605,0.00070734,0.00071066,0.0007269,0,0_NORMAL_FLIGHT,10.7961
47113647.0,0.0,0.07,0.0,0.06,1.46,1.46,0.0,0.0,-0.04277889,0.01461675,-10.74358,0.00062105,0.00069319,0.00065879,0,0_NORMAL_FLIGHT,10.7437
47163627.0,0.0,0.07,0.0,0.06,1.46,1.46,0.0,0.0,0.00524901,0.00734718,-10.79815,0.00068762,0.00068126,0.00075221,0,0_NORMAL_FLIGHT,10.7982
47213607.0,0.0,0.07,0.0,0.06,1.46,1.46,0.0,0.0,-0.00300386,-0.06992377,-10.65147,0.00068184,0.00073973,0.00071149,0,0_NORMAL_FLIGHT,10.6517
47263587.0,0.0,0.07,0.0,0.06,1.46,1.46,0.0,0.0,-0.00493675,-0.08909275,-10.64313,0.00072208,0.00074079,0.00067914,0,0_NORMAL_FLIGHT,10.6435
47313567.0,0.0,0.07,0.0,0.06,1.455,1.455,0.0,0.0,0.03348828,0.02606502,-10.60563,0.00073122,0.00067484,0.00065856,0,0_NORMAL_FLIGHT,10.6057
47363547.0,0.0,0.07,0.0,0.06,1.45,1.45,0.0,0.0,-0.02663038,0.04982536,-11.13249,0.00107587,-0.01460227,0.00078698,0,0_NORMAL_FLIGHT,11.1326
47413527.0,0.0,0.075,0.0,0.06,1.45,1.45,0.0,0.0,0.00790087,0.06493185,-15.27131,-0.03113139,-0.07933079,0.00151106,0,0_NORMAL_FLIGHT,15.2715
47463507.0,0.0,0.08,0.0,0.06,1.45,1.45,0.0,0.0,0.02582536,-0.02522629,-14.54529,0.04660128,0.03274492,0.00190172,0,0_NORMAL_FLIGHT,14.5453
47513487.0,0.0,0.08,0.0,0.065,1.45,1.45,0.0,0.0,-0.0097812,-0.00419689,-12.2211,0.00516484,-0.3195052,0.00253863,0,0_NORMAL_FLIGHT,12.2211
47563467.0,0.0,0.08,0.0,0.07,1.45,1.45,0.0,0.0,0.00084274,0.0359681,-11.11298,0.5177282,0.3090006,0.00243647,0,0_NORMAL_FLIGHT,11.113
47613447.0,0.0,0.08,0.0,0.07,1.445,1.445,0.0,0.0,0.0146649,0.01743777,-10.12899,0.2284294,-2.075926,0.00706995,0,0_NORMAL_FLIGHT,10.129
47663427.0,0.0,0.08,0.0,0.07,1.44,1.44,0.0,0.0,-0.05390512,0.02432876,-9.521157,0.8867552,1.97052,0.00057207,0,0_NORMAL_FLIGHT,9.5213
47713407.0,0.0,0.08,0.0,0.07,1.44,1.44,0.0,0.0,0.00159948,-0.00231776,-9.262297,2.370247,-0.404419,0.01011646,0,0_NORMAL_FLIGHT,9.2623
47763387.0,0.0,0.08,0.0,0.07,1.44,1.44,0.0,0.0,-0.03069155,0.00365767,-9.219107,-1.525356,1.942246,0.01493851,0,0_NORMAL_FLIGHT,9.2192
47813367.0,0.0,0.08,0.0,0.07,1.44,1.44,0.0,0.0,0.0095287,-0.01071618,-9.446794,1.403051,2.098507,0.000129,0,0_NORMAL_FLIGHT,9.4468
47863347.0,0.0,0.08,0.0,0.07,1.44,1.44,0.0,0.0,0.03573447,-0.05485203,-9.5946,-2.314526,-0.8134087,0.00857204,0,0_NORMAL_FLIGHT,9.5948
47913327.0,0.0,0.08,0.0,0.07,1.435,1.435,0.0,0.0,-0.00609973,-0.02251285,-9.845612,-1.200617,2.100717,0.02745353,0,0_NORMAL_FLIGHT,9.8456
47963307.0,0.0,0.08,0.0,0.07,1.43,1.43,0.0,0.0,-0.00251374,0.06828968,-9.944551,-0.2146377,-2.432983,0.01617481,0,0_NORMAL_FLIGHT,9.9448
48013287.0,0.0,0.08,0.0,0.07,1.43,1.43,0.0,0.0,-0.01782712,-0.03790702,-10.0213,-2.452116,-0.2526018,0.02666217,0,0_NORMAL_FLIGHT,10.0214
48063267.0,0.0,0.08,0.0,0.07,1.43,1.43,0.0,0.0,0.01840209,0.01966937,-10.05219,1.992522,-1.280141,0.04070395,0,0_NORMAL_FLIGHT,10.0522
48113663.5,0.0,0.08,0.0,0.07,1.43,1.43,0.0,0.0,0.0438172,0.04120038,-10.06725,-0.8543659,-2.27669,0.0279538,0,0_NORMAL_FLIGHT,10.0674
48164060.0,0.0,0.08,0.0,0.07,1.43,1.43,0.0,0.0,-0.04057328,0.05189488,-10.02809,2.061181,1.267723,0.03016866,0,0_NORMAL_FLIGHT,10.0283
48214040.0,0.0,0.085,0.0,0.075,1.425,1.425,0.0,0.0,-0.00032842,0.04831904,-10.01027,1.939861,-1.561367,0.05357657,0,0_NORMAL_FLIGHT,10.0104
48264020.0,0.0,0.09,0.0,0.08,1.42,1.42,0.0,0.0,-0.0708455,0.04518883,-10.07701,-0.7094989,2.430914,0.0542668,0,0_NORMAL_FLIGHT,10.0774
48314000.0,0.0,0.09,0.0,0.08,1.42,1.42,0.0,0.0,-0.00186324,0.00694735,-10.12085,2.030685,1.546195,0.04484735,0,0_NORMAL_FLIGHT,10.1209
48363980.0,0.0,0.09,0.0,0.08,1.42,1.42,0.0,0.0,-0.00389949,0.04917811,-10.12253,-2.507311,-0.1792242,0.05599356,0,0_NORMAL_FLIGHT,10.1227
48413960.0,0.0,0.09,0.0,0.08,1.42,1.42,0.0,0.0,0.02684425,-0.01274935,-10.05319,-1.041655,2.367401,0.06536506,0,0_NORMAL_FLIGHT,10.0532
48463940.0,0.0,0.09,0.0,0.08,1.42,1.42,0.0,0.0,0.04279684,-0.00417778,-10.17059,-0.4264493,-2.52825,0.05846011,0,0_NORMAL_FLIGHT,10.1707
48513920.0,0.005,0.09,0.005,0.08,1.42,1.415,0.0,0.0,0.03574748,0.01483172,-10.22317,-2.540839,-0.4769072,0.0608497,0,0_NORMAL_FLIGHT,10.2232
48563900.0,0.01,0.09,0.01,0.08,1.42,1.41,0.0,0.0,-0.03227584,0.02918326,-10.20291,2.263306,-1.08113,0.07072037,0,0_NORMAL_FLIGHT,10.203
48613880.0,0.015,0.09,0.015,0.08,1.42,1.41,0.0,0.0,0.01824139,0.0550388,-10.21266,-0.42875,-2.518016,0.05924018,0,0_NORMAL_FLIGHT,10.2128
48663860.0,0.02,0.09,0.02,0.08,1.42,1.41,0.0,0.0,0.00761109,0.00305408,-10.2849,1.822654,1.771033,0.05278874,0,0_NORMAL_FLIGHT,10.2849
48713840.0,0.02,0.09,0.02,0.08,1.42,1.41,0.0,0.0,-0.02084663,0.03267426,-10.30378,2.274255,-1.244858,0.06905544,0,0_NORMAL_FLIGHT,10.3039
48763820.0,0.02,0.09,0.02,0.08,1.42,1.41,0.0,0.0,0.0023872,0.01773476,-10.25344,-1.048218,2.389196,0.06554863,0,0_NORMAL_FLIGHT,10.2535
48813800.0,0.02,0.095,0.02,0.08,1.42,1.405,0.0,0.0,-0.04399028,-0.00710807,-10.35127,1.933688,1.678838,0.0480638,0,0_NORMAL_FLIGHT,10.3514
48863780.0,0.02,0.1,0.02,0.08,1.42,1.4,0.0,0.0,-0.03906173,-0.0414507,-10.33985,-2.591278,-0.2900969,0.05899986,0,0_NORMAL_FLIGHT,10.34
48913760.0,0.02,0.1,0.02,0.085,1.42,1.4,0.0,0.0,0.03316541,-0.03649117,-10.33135,-0.7827606,2.461858,0.05656928,0,0_NORMAL_FLIGHT,10.3315
48963740.0,0.02,0.1,0.02,0.09,1.42,1.4,0.0,0.0,0.02940459,0.01004115,-10.38483,-0.8854285,-2.446701,0.04202727,0,0_NORMAL_FLIGHT,10.3849
49013720.0,0.02,0.1,0.02,0.09,1.42,1.4,0.0,0.0,0.01693658,0.0148477,-10.37905,-2.650627,-0.1013349,0.04436835,0,0_NORMAL_FLIGHT,10.3791
49063700.0,0.02,0.1,0.02,0.09,1.42,1.4,0.0,0.0,-0.04465073,-0.0218212,-10.36745,2.253722,-1.310789,0.05458684,0,0_NORMAL_FLIGHT,10.3676
49113680.0,0.02,0.1,0.02,0.09,1.42,1.395,0.0,0.0,0.02415989,0.02551015,-10.36498,-0.4184561,-2.658139,0.03793018,0,0_NORMAL_FLIGHT,10.365
49163660.0,0.02,0.1,0.02,0.09,1.42,1.39,0.0,0.0,-0.06678346,0.02445453,-10.263,1.811687,1.862914,0.03316271,0,0_NORMAL_FLIGHT,10.2632
49213640.0,0.015,0.1,0.015,0.09,1.42,1.39,0.0,0.0,-0.00597319,-0.00279713,-10.2586,2.359417,-1.07006,0.04897612,0,0_NORMAL_FLIGHT,10.2586
49263620.0,0.01,0.1,0.01,0.09,1.42,1.39,0.0,0.0,-0.06164726,-0.05039975,-10.24671,-1.31035,2.22055,0.0532386,0,0_NORMAL_FLIGHT,10.247
49313600.0,0.005,0.1,0.005,0.09,1.42,1.39,0.0,0.0,-0.05237944,0.00072292,-10.1965,1.779485,1.958945,0.04124802,0,0_NORMAL_FLIGHT,10.1966
49363580.0,0.0,0.1,0.0,0.09,1.42,1.39,0.0,0.0,0.03156739,-0.0159578,-10.21119,-2.580278,-0.5023353,0.05446649,0,0_NORMAL_FLIGHT,10.2113
49413560.0,0.0,0.105,0.0,0.09,1.42,1.385,0.0,0.0,0.00587842,0.00243865,-10.15743,-1.249834,2.243647,0.07883592,0,0_NORMAL_FLIGHT,10.1574
49463540.0,0.0,0.11,0.0,0.09,1.42,1.38,0.0,0.0,0.01468528,0.07768144,-10.15971,-0.2945871,-2.551147,0.07532817,0,0_NORMAL_FLIGHT,10.16
49513520.0,0.005,0.11,0.0,0.095,1.42,1.38,0.0,0.0,0.04887612,0.00335445,-10.13943,-2.580947,-0.4463299,0.09874135,0,0_NORMAL_FLIGHT,10.1395
49563500.0,0.01,0.11,0.0,0.1,1.42,1.38,0.0,0.0,0.02618551,-0.00342062,-10.06769,2.277425,-1.132943,0.1157884,0,0_NORMAL_FLIGHT,10.0677
49613480.0,0.01,0.11,0.0,0.1,1.42,1.38,0.0,0.0,0.03790601,-0.0085008,-10.09177,-0.5638397,-2.459207,0.122785,0,0_NORMAL_FLIGHT,10.0918
49663460.0,0.01,0.11,0.0,0.1,1.42,1.38,0.0,0.0,0.01510264,0.00810601,-10.00253,2.05881,1.52251,0.1282049,0,0_NORMAL_FLIGHT,10.0025
49713440.0,0.01,0.11,0.0,0.1,1.42,1.375,0.0,0.0,-0.03238849,0.04690347,-10.01272,1.966743,-1.553771,0.1521046,0,0_NORMAL_FLIGHT,10.0129
49763420.0,0.01,0.11,0.0,0.1,1.42,1.37,0.0,0.0,-0.0127953,-0.03737277,-9.999434,-0.5365193,2.48901,0.1498636,0,0_NORMAL_FLIGHT,9.9995
49813400.0,-0.005,0.11,-0.015,0.1,1.42,1.37,0.0,0.0,-0.01830681,0.01811297,-9.88102,2.23195,1.071613,0.1453203,0,0_NORMAL_FLIGHT,9.8811
49863380.0,-0.02,0.11,-0.03,0.1,1.42,1.37,0.0,0.0,-0.00590274,-0.07558007,-9.811858,-2.448199,0.540391,0.1531424,0,0_NORMAL_FLIGHT,9.8122
49913360.0,-0.04,0.11,-0.04,0.1,1.42,1.37,0.0,0.0,-0.02245922,-0.03338731,-9.811107,-0.1317317,2.575014,0.1436113,0,0_NORMAL_FLIGHT,9.8112
49963340.0,-0.06,0.11,-0.05,0.1,1.42,1.37,0.0,0.0,0.03650802,0.01732006,-9.803199,-1.317114,-2.188103,0.1289634,0,0_NORMAL_FLIGHT,9.8033
50013320.0,-0.065,0.115,-0.045,0.1,1.42,1.365,0.0,0.0,-0.00030188,0.03010596,-9.802988,-2.464427,0.4558657,0.1272035,0,0_NORMAL_FLIGHT,9.803
50063300.0,-0.07,0.12,-0.04,0.1,1.42,1.36,0.0,0.0,0.02955593,0.00541859,-9.86001,1.804639,-1.81849,0.1262146,0,0_NORMAL_FLIGHT,9.8601
50113280.0,-0.08,0.12,-0.05,0.105,1.42,1.36,0.0,0.0,-0.01822638,-0.00612329,-9.837941,-1.009545,-2.332299,0.08870839,0,0_NORMAL_FLIGHT,9.838
50163260.0,-0.09,0.12,-0.06,0.11,1.42,1.36,0.0,0.0,-0.01445926,0.00544702,-9.817012,2.13646,1.401515,0.0782619,0,0_NORMAL_FLIGHT,9.817
50213656.5,-0.085,0.12,-0.075,0.11,1.42,1.355,0.0,0.0,0.03230713,-0.01821597,-9.83049,2.027294,-1.526312,0.07376041,0,0_NORMAL_FLIGHT,9.8306
50264053.0,-0.08,0.12,-0.09,0.11,1.42,1.35,0.0,0.0,-0.00906948,0.01627296,-9.893892,-0.8051039,2.46026,0.06049619,0,0_NORMAL_FLIGHT,9.8939
50314033.0,-0.075,0.105,-0.11,0.07,1.42,1.35,0.0,0.0,-0.06049965,-0.01685141,-9.816551,2.049436,1.481026,0.02993601,0,0_NORMAL_FLIGHT,9.8168
50364013.0,-0.07,0.09,-0.13,0.03,1.42,1.35,0.0,0.0,0.00722326,-0.09254397,-9.887508,-2.535682,0.03908731,0.03010625,0,0_NORMAL_FLIGHT,9.8879
50413993.0,-0.09,0.025,-0.14,-0.015,1.42,1.35,0.0,0.0,-0.02321873,-0.0495651,-9.854002,-0.6786423,2.440627,0.01747307,0,0_NORMAL_FLIGHT,9.8542
50463973.0,-0.11,-0.04,-0.15,-0.06,1.42,1.35,0.0,0.0,0.00346535,-0.00515922,-9.844532,-0.8267059,-2.379978,-0.00221857,0,0_NORMAL_FLIGHT,9.8445
50513953.0,-0.09,-0.26,-0.12,-0.04,1.42,1.35,0.0,0.0,0.02910078,-0.00616514,-9.862494,-2.547503,0.126881,-0.0008295,0,0_NORMAL_FLIGHT,9.8625
50563933.0,-0.07,-0.48,-0.09,-0.02,1.42,1.35,0.0,0.0,-0.0328433,0.00377879,-9.850612,1.90702,-1.694963,-0.00062629,0,0_NORMAL_FLIGHT,9.8507
50613913.0,-0.035,0.0,-0.055,-0.895,1.42,1.315,0.0,0.0,0.06011772,0.00746016,-9.883312,-0.9839978,-2.285613,-0.02344602,0,0_NORMAL_FLIGHT,9.8835
50663893.0,0.0,0.48,-0.02,-1.77,1.42,1.28,0.0,0.0,-0.0100974,0.01893904,-9.922813,2.247851,1.148981,-0.02454666,0,0_NORMAL_FLIGHT,9.9228
50713873.0,0.025,-0.405,0.045,-0.36,1.42,1.18,0.0,0.0,0.02425629,0.03962766,-9.839234,1.851839,-1.78427,-0.0089241,0,0_NORMAL_FLIGHT,9.8393
50763853.0,0.05,-1.29,0.11,1.05,1.42,1.08,0.0,0.0,-0.02177368,-0.02265963,-9.911463,-0.4662776,2.575517,-0.01592917,0,0_NORMAL_FLIGHT,9.9115
50813833.0,0.14,-0.415,0.17,-0.25,1.42,0.99,0.0,0.0,-0.00432493,0.04305325,-9.968598,2.16379,1.332657,-0.02103439,0,0_NORMAL_FLIGHT,9.9687
50863813.0,0.23,0.46,0.23,-1.55,1.42,0.9,0.0,0.0,0.03542186,-0.02162047,-9.902959,-2.609616,0.01956676,-0.00474849,0,0_NORMAL_FLIGHT,9.903
50913793.0,0.285,-0.07,0.265,0.08,1.42,0.8,0.0,0.0,-0.02085925,-0.06785788,-9.883279,-0.8925074,2.416861,0.00597098,0,0_NORMAL_FLIGHT,9.8835
50963773.0,0.34,-0.6,0.3,1.71,1.42,0.7,0.0,0.0,-0.00747763,0.03569867,-9.924852,-0.7711085,-2.500697,0.00067809,0,0_NORMAL_FLIGHT,9.9249
51013753.0,0.38,0.125,0.3,0.075,1.42,0.625,0.0,0.0,0.05367709,0.01823637,-9.900277,-2.57486,-0.03761061,0.02098567,0,0_NORMAL_FLIGHT,9.9004
51063733.0,0.42,0.85,0.3,-1.56,1.42,0.55,0.0,0.0,0.01028719,0.06592337,-9.89186,2.047366,-1.443688,0.03592034,0,0_NORMAL_FLIGHT,9.8921
51113713.0,0.36,0.555,0.305,0.13,1.42,0.51,0.0,0.0,0.00357663,-0.040422,-9.917615,-0.8401202,-2.392472,0.03260712,0,0_NORMAL_FLIGHT,9.9177
51163693.0,0.3,0.26,0.31,1.82,1.42,0.47,0.0,0.0,0.04792585,-0.00532916,-9.933851,2.129454,1.445692,0.03697892,0,0_NORMAL_FLIGHT,9.934
51213673.0,0.275,0.23,0.31,0.225,1.42,0.435,0.0,0.0,0.07442753,-0.02334372,-9.902523,2.028119,-1.546929,0.06314426,0,0_NORMAL_FLIGHT,9.9028
51263653.0,0.25,0.2,0.31,-1.37,1.42,0.4,0.0,0.0,-0.00538911,-0.01189926,-9.899778,-0.640578,2.509343,0.06235744,0,0_NORMAL_FLIGHT,9.8998
51313633.0,0.245,-0.025,0.315,0.255,1.42,0.385,0.0,0.0,-0.02372863,0.04779315,-9.950409,2.184318,1.230296,0.05781955,0,0_NORMAL_FLIGHT,9.9506
51363613.0,0.24,-0.25,0.32,1.88,1.42,0.37,0.0,0.0,0.0682792,-0.03282394,-9.90703,-2.515067,0.3183428,0.07478485,0,0_NORMAL_FLIGHT,9.9073
51413593.0,0.29,-0.05,0.31,0.16,1.42,0.38,0.0,0.0,0.04414877,-0.05632037,-9.921191,-0.1763971,2.521737,0.07751248,0,0_NORMAL_FLIGHT,9.9214
51463573.0,0.34,0.15,0.3,-1.56,1.42,0.39,0.0,0.0,0.02672981,-0.04025932,-9.927155,-1.403565,-2.042072,0.06634159,0,0_NORMAL_FLIGHT,9.9273
51513553.0,0.36,0.04,0.315,0.18,1.42,0.415,0.0,0.0,-0.0154508,-0.07866445,-9.953521,-2.338787,0.9552604,0.08493156,0,0_NORMAL_FLIGHT,9.9538
51563533.0,0.38,-0.07,0.33,1.92,1.42,0.44,0.0,0.0,-0.00239844,0.02335905,-9.883564,1.244992,-2.162398,0.08727054,0,0_NORMAL_FLIGHT,9.8836
51613513.0,0.38,0.355,0.33,0.24,1.42,0.47,0.0,0.0,-0.00590365,0.02828902,-9.929016,-1.867838,-1.729493,0.06503139,0,0_NORMAL_FLIGHT,9.9291
51663493.0,0.38,0.78,0.33,-1.44,1.42,0.5,0.0,0.0,-0.01701287,-0.04031758,-9.945375,2.594869,0.3016153,0.07050362,0,0_NORMAL_FLIGHT,9.9455
51713473.0,0.34,0.305,0.345,0.25,1.42,0.55,0.0,0.0,-0.02245233,0.04136472,-9.864302,1.21497,-2.342756,0.07276824,0,0_NORMAL_FLIGHT,9.8644
51763453.0,0.3,-0.17,0.36,1.94,1.42,0.6,0.0,0.0,-0.04165286,-0.04052041,-9.912384,0.2827839,2.580045,0.06091129,0,0_NORMAL_FLIGHT,9.9126
51813433.0,0.28,0.2,0.34,0.275,1.42,0.64,0.0,0.0,-0.00668644,0.02308595,-9.894523,2.508042,0.6660832,0.05533321,0,0_NORMAL_FLIGHT,9.8946
51863413.0,0.26,0.57,0.32,-1.39,1.42,0.68,0.0,0.0,0.00732306,-0.05293798,-9.93791,-2.446544,0.8258694,0.06676622,0,0_NORMAL_FLIGHT,9.9381
51913393.0,0.255,0.165,0.31,0.325,1.42,0.73,0.0,0.0,0.05988778,-0.03925054,-9.909556,-0.1138587,2.612432,0.05264106,0,0_NORMAL_FLIGHT,9.9098
51963373.0,0.25,-0.24,0.3,2.04,1.42,0.78,0.0,0.0,0.006748,-0.00091486,-9.909842,-1.385068,-2.185174,0.04187183,0,0_NORMAL_FLIGHT,9.9098
52013353.0,0.265,0.155,0.285,0.325,1.42,0.81,0.0,0.0,-0.01101501,-0.04722953,-9.911831,-2.445136,0.6046774,0.0495717,0,0_NORMAL_FLIGHT,9.9119
52063333.0,0.28,0.55,0.27,-1.39,1.42,0.84,0.0,0.0,0.01881035,0.03445878,-9.846077,1.664189,-1.93491,0.05466664,0,0_NORMAL_FLIGHT,9.8462
52113313.0,0.275,0.19,0.25,0.25,1.42,0.87,0.0,0.0,0.05782222,-0.01136744,-9.891804,-1.37084,-2.194055,0.03067522,0,0_NORMAL_FLIGHT,9.892
52163293.0,0.27,-0.17,0.23,1.89,1.42,0.9,0.0,0.0,-0.0145872,-0.01412017,-9.898132,2.411749,0.9195433,0.03449093,0,0_NORMAL_FLIGHT,9.8982
52213689.5,0.28,0.09,0.225,0.115,1.42,0.91,0.0,0.0,-0.04733194,0.03675045,-9.885565,1.585737,-1.987133,0.04437354,0,0_NORMAL_FLIGHT,9.8857
52264086.0,0.29,0.35,0.22,-1.66,1.42,0.92,0.0,0.0,-0.01554455,-0.02069197,-9.91732,-0.1527438,2.560355,0.03392649,0,0_NORMAL_FLIGHT,9.9174
52314066.0,0.275,0.07,0.25,0.275,1.42,0.91,0.0,0.0,-0.02802813,0.01684496,-9.896004,2.429891,0.84092,0.02944153,0,0_NORMAL_FLIGHT,9.8961
52364046.0,0.26,-0.21,0.28,2.21,1.42,0.9,0.0,0.0,0.02082693,-0.01290532,-9.838683,-2.373143,0.786247,0.040545,0,0_NORMAL_FLIGHT,9.8387
52414026.0,0.565,0.285,0.27,0.41,2.615,2.07,0.0,0.0,-0.07166938,-0.04064135,-9.943939,0.282299,2.599839,0.02780365,0,0_NORMAL_FLIGHT,9.9443
52464006.0,0.87,0.78,0.26,-1.39,3.81,3.24,0.0,0.0,0.05287776,-0.00242853,-9.890851,-1.56464,-2.070949,0.02452648,0,0_NORMAL_FLIGHT,9.891
52513986.0,0.715,0.19,0.19,0.26,3.805,3.06,0.0,0.0,0.02664314,-0.02262965,-9.861763,-2.532254,0.7617381,0.04116935,0,0_NORMAL_FLIGHT,9.8618
52563966.0,0.56,-0.4,0.12,1.91,3.8,2.88,0.0,0.0,0.03626769,0.00325778,-9.840324,1.538922,-2.063381,0.04282801,0,0_NORMAL_FLIGHT,9.8404
52613946.0,0.51,0.09,0.1,0.075,3.8,2.445,0.0,0.0,0.05234627,0.03100581,-9.943655,-1.327132,-2.199193,0.02672115,0,0_NORMAL_FLIGHT,9.9438
52663926.0,0.46,0.58,0.08,-1.76,3.8,2.01,0.0,0.0,-0.041343,0.04861652,-9.881523,2.312027,1.17442,0.03255702,0,0_NORMAL_FLIGHT,9.8817
52713906.0,0.425,0.145,0.095,0.035,3.8,1.735,0.0,0.0,-0.03718669,0.01035997,-9.868152,1.753387,-1.820906,0.05024541,0,0_NORMAL_FLIGHT,9.8682
52763886.0,0.39,-0.29,0.11,1.83,3.8,1.46,0.0,0.0,-0.00569622,-0.05227046,-9.894884,-0.3059272,2.565743,0.04384093,0,0_NORMAL_FLIGHT,9.895
52813866.0,0.36,0.15,0.115,0.06,3.8,1.24,0.0,0.0,-0.03986517,0.0325247,-9.860798,2.337242,1.062476,0.04094283,0,0_NORMAL_FLIGHT,9.8609
52863846.0,0.33,0.59,0.12,-1.71,3.8,1.02,0.0,0.0,-0.02900188,0.01851205,-9.848927,-2.52655,0.5282788,0.05182424,0,0_NORMAL_FLIGHT,9.849
52913826.0,0.3,0.165,0.14,0.1,3.8,1.0,0.0,0.0,-0.03048927,-0.03963058,-9.88186,-0.2085743,2.537086,0.05096003,0,0_NORMAL_FLIGHT,9.882
52963806.0,0.27,-0.26,0.16,1.91,3.8,0.98,0.0,0.0,0.02424885,-0.05075629,-9.851106,-1.32148,-2.164262,0.03975064,0,0_NORMAL_FLIGHT,9.8513
53013786.0,0.295,0.065,0.165,0.16,3.8,1.065,0.0,0.0,-0.00485794,-0.01830202,-9.878674,-2.499856,0.6517953,0.05762808,0,0_NORMAL_FLIGHT,9.8787
53063766.0,0.32,0.39,0.17,-1.59,3.8,1.15,0.0,0.0,0.02526585,0.0015613,-9.806957,1.492619,-2.036526,0.0590836,0,0_NORMAL_FLIGHT,9.807
53113746.0,0.335,0.38,0.185,0.12,3.8,1.395,0.0,0.0,0.04300364,0.01773987,-9.869006,-1.598555,-1.924417,0.04813176,0,0_NORMAL_FLIGHT,9.8691
53163726.0,0.35,0.37,0.2,1.83,3.8,1.64,0.0,0.0,-0.05275948,0.02306539,-9.887472,2.549692,0.4808537,0.05507407,0,0_NORMAL_FLIGHT,9.8876
53213706.0,0.34,0.305,0.18,0.185,3.8,1.91,0.0,0.0,-0.03134611,0.01913858,-9.855666,1.061268,-2.285926,0.05926777,0,0_NORMAL_FLIGHT,9.8557
